{
"type": "FeatureCollection",
"name": "cd_poinum_poi",
"crs": { "type": "name", "properties": { "name": "urn:ogc:def:crs:OGC:1.3:CRS84" } },
"features": [
{ "type": "Feature", "properties": { "rest_name": "THE CAKE HOUSE豪士烘焙", "rest_star": 5.0, "rest_review": 677, "rest_price": 126, "rest_type": "面包烘焙", "taste_score": 4.8, "environment_score": 4.8, "service_score": 4.8, "lng84": 104.11201195179227, "lat84": 30.823027127650761, "name": "新都区", "type_1": "其他", "type_2": "其他", "CLUSTER_ID": 207, "CLUSTER_SIZE": 1, "CLUSTER_ID_2": null, "CLUSTER_SIZE_2": null }, "geometry": { "type": "Point", "coordinates": [ 104.112011951792269, 30.823027127650761 ] } },
{ "type": "Feature", "properties": { "rest_name": "川西火焰山西昌火盆烧烤(四川总店)", "rest_star": 4.5, "rest_review": 664, "rest_price": 79, "rest_type": "融合烤肉", "taste_score": 4.6, "environment_score": 4.5, "service_score": 4.5, "lng84": 104.24921776302958, "lat84": 30.78238232826288, "name": "新都区", "type_1": "烧烤", "type_2": "烧烤", "CLUSTER_ID": 208, "CLUSTER_SIZE": 1, "CLUSTER_ID_2": null, "CLUSTER_SIZE_2": null }, "geometry": { "type": "Point", "coordinates": [ 104.249217763029577, 30.78238232826288 ] } },
{ "type": "Feature", "properties": { "rest_name": "沸腾都火公园火锅", "rest_star": 4.5, "rest_review": 1324, "rest_price": 122, "rest_type": "四川火锅", "taste_score": 4.5, "environment_score": 4.5, "service_score": 4.5, "lng84": 104.24446671016155, "lat84": 30.768765241964307, "name": "新都区", "type_1": "川渝", "type_2": "地域特色", "CLUSTER_ID": 202, "CLUSTER_SIZE": 1, "CLUSTER_ID_2": null, "CLUSTER_SIZE_2": null }, "geometry": { "type": "Point", "coordinates": [ 104.244466710161547, 30.768765241964307 ] } },
{ "type": "Feature", "properties": { "rest_name": "森湖.马帮寨火锅.柴火鸡(森湖山庄店) 分店", "rest_star": 4.0, "rest_review": 722, "rest_price": 84, "rest_type": "火锅", "taste_score": 4.3, "environment_score": 4.7, "service_score": 4.1, "lng84": 104.25807270022025, "lat84": 30.60111497849002, "name": "龙泉驿区", "type_1": "火锅", "type_2": "火锅", "CLUSTER_ID": 491, "CLUSTER_SIZE": 1, "CLUSTER_ID_2": null, "CLUSTER_SIZE_2": null }, "geometry": { "type": "Point", "coordinates": [ 104.258072700220254, 30.60111497849002 ] } },
{ "type": "Feature", "properties": { "rest_name": "醉月城西昌火盆烧烤(四川总店)", "rest_star": 4.5, "rest_review": 632, "rest_price": 77, "rest_type": "融合烤肉", "taste_score": 4.7, "environment_score": 4.6, "service_score": 4.7, "lng84": 104.13627741444508, "lat84": 30.832569279569562, "name": "新都区", "type_1": "烧烤", "type_2": "烧烤", "CLUSTER_ID": 210, "CLUSTER_SIZE": 1, "CLUSTER_ID_2": null, "CLUSTER_SIZE_2": null }, "geometry": { "type": "Point", "coordinates": [ 104.136277414445075, 30.832569279569562 ] } },
{ "type": "Feature", "properties": { "rest_name": "创鑫自助肥牛小火锅(天府广场店)", "rest_star": 4.0, "rest_review": 505, "rest_price": 50, "rest_type": "自助餐", "taste_score": 3.9, "environment_score": 4.2, "service_score": 4.2, "lng84": 104.05610208474786, "lat84": 30.655443450992617, "name": "青羊区", "type_1": "其他", "type_2": "其他", "CLUSTER_ID": 13, "CLUSTER_SIZE": 168, "CLUSTER_ID_2": null, "CLUSTER_SIZE_2": null }, "geometry": { "type": "Point", "coordinates": [ 104.056102084747863, 30.655443450992617 ] } },
{ "type": "Feature", "properties": { "rest_name": "ME兔(大源店)", "rest_star": 4.5, "rest_review": 887, "rest_price": 60, "rest_type": "小火锅", "taste_score": 4.7, "environment_score": 4.1, "service_score": 4.4, "lng84": 103.96941363182424, "lat84": 30.475689083397306, "name": "武侯区", "type_1": "火锅", "type_2": "火锅", "CLUSTER_ID": 226, "CLUSTER_SIZE": 11, "CLUSTER_ID_2": null, "CLUSTER_SIZE_2": null }, "geometry": { "type": "Point", "coordinates": [ 103.969413631824239, 30.475689083397306 ] } },
{ "type": "Feature", "properties": { "rest_name": "红星饭店(总店)", "rest_star": 4.0, "rest_review": 523, "rest_price": 71, "rest_type": "川菜馆", "taste_score": 4.3, "environment_score": 4.3, "service_score": 4.3, "lng84": 103.86301622453259, "lat84": 30.825888956430347, "name": "郫都区", "type_1": "川渝", "type_2": "地域特色", "CLUSTER_ID": 369, "CLUSTER_SIZE": 1, "CLUSTER_ID_2": null, "CLUSTER_SIZE_2": null }, "geometry": { "type": "Point", "coordinates": [ 103.863016224532586, 30.825888956430347 ] } },
{ "type": "Feature", "properties": { "rest_name": "麻小度青花椒鱼(安德总店)", "rest_star": 4.0, "rest_review": 617, "rest_price": 77, "rest_type": "鱼火锅", "taste_score": 4.2, "environment_score": 4.2, "service_score": 4.0, "lng84": 103.8421006614015, "lat84": 30.839349995126089, "name": "郫都区", "type_1": "火锅", "type_2": "火锅", "CLUSTER_ID": 367, "CLUSTER_SIZE": 1, "CLUSTER_ID_2": null, "CLUSTER_SIZE_2": null }, "geometry": { "type": "Point", "coordinates": [ 103.842100661401503, 30.839349995126089 ] } },
{ "type": "Feature", "properties": { "rest_name": "荣胜和鲜货火锅(郫筒大蜀直营店)", "rest_star": 5.0, "rest_review": 1735, "rest_price": 90, "rest_type": "四川火锅", "taste_score": 4.8, "environment_score": 4.8, "service_score": 4.7, "lng84": 103.86331509978183, "lat84": 30.79683375486108, "name": "郫都区", "type_1": "川渝", "type_2": "地域特色", "CLUSTER_ID": 360, "CLUSTER_SIZE": 1, "CLUSTER_ID_2": null, "CLUSTER_SIZE_2": null }, "geometry": { "type": "Point", "coordinates": [ 103.863315099781829, 30.79683375486108 ] } },
{ "type": "Feature", "properties": { "rest_name": "蜀鲜汇鲜活火锅(华阳店)", "rest_star": 4.0, "rest_review": 1136, "rest_price": 102, "rest_type": "四川火锅", "taste_score": 4.2, "environment_score": 4.3, "service_score": 4.2, "lng84": 103.98910178685087, "lat84": 30.445415933601101, "name": "双流区", "type_1": "川渝", "type_2": "地域特色", "CLUSTER_ID": 69, "CLUSTER_SIZE": 3, "CLUSTER_ID_2": null, "CLUSTER_SIZE_2": null }, "geometry": { "type": "Point", "coordinates": [ 103.989101786850867, 30.445415933601101 ] } },
{ "type": "Feature", "properties": { "rest_name": "黑石香村柴火鸡 · 鹅", "rest_star": 4.5, "rest_review": 660, "rest_price": 73, "rest_type": "农家菜", "taste_score": 4.8, "environment_score": 4.6, "service_score": 4.7, "lng84": 104.03400370472633, "lat84": 30.403498647064531, "name": "双流区", "type_1": "其他", "type_2": "其他", "CLUSTER_ID": 64, "CLUSTER_SIZE": 1, "CLUSTER_ID_2": null, "CLUSTER_SIZE_2": null }, "geometry": { "type": "Point", "coordinates": [ 104.034003704726331, 30.403498647064531 ] } },
{ "type": "Feature", "properties": { "rest_name": "隐约小小的岛", "rest_star": 4.0, "rest_review": 503, "rest_price": 77, "rest_type": "川菜馆", "taste_score": 4.0, "environment_score": 4.1, "service_score": 4.0, "lng84": 103.96227242589462, "lat84": 30.841886853786018, "name": "郫都区", "type_1": "川渝", "type_2": "地域特色", "CLUSTER_ID": 365, "CLUSTER_SIZE": 1, "CLUSTER_ID_2": null, "CLUSTER_SIZE_2": null }, "geometry": { "type": "Point", "coordinates": [ 103.962272425894625, 30.841886853786018 ] } },
{ "type": "Feature", "properties": { "rest_name": "大蓉和·卓锦(华府店)", "rest_star": 4.0, "rest_review": 717, "rest_price": 176, "rest_type": "川菜馆", "taste_score": 4.3, "environment_score": 4.3, "service_score": 4.2, "lng84": 104.09260310996727, "lat84": 30.44107193342801, "name": "双流区", "type_1": "川渝", "type_2": "地域特色", "CLUSTER_ID": 62, "CLUSTER_SIZE": 13, "CLUSTER_ID_2": null, "CLUSTER_SIZE_2": null }, "geometry": { "type": "Point", "coordinates": [ 104.092603109967271, 30.44107193342801 ] } },
{ "type": "Feature", "properties": { "rest_name": "张烤鸭·川菜·冒烤鸭(绿地468店) 分店", "rest_star": 4.0, "rest_review": 838, "rest_price": 15, "rest_type": "川菜馆", "taste_score": 4.5, "environment_score": 4.3, "service_score": 4.5, "lng84": 104.22535939272117, "lat84": 30.56392616585093, "name": "锦江区", "type_1": "川渝", "type_2": "地域特色", "CLUSTER_ID": 403, "CLUSTER_SIZE": 7, "CLUSTER_ID_2": null, "CLUSTER_SIZE_2": null }, "geometry": { "type": "Point", "coordinates": [ 104.225359392721174, 30.56392616585093 ] } },
{ "type": "Feature", "properties": { "rest_name": "乐山牛华绿缘麻辣烫(清江中路店)", "rest_star": 4.0, "rest_review": 1205, "rest_price": 60, "rest_type": "串串香", "taste_score": 4.2, "environment_score": 4.1, "service_score": 4.2, "lng84": 103.94698999767789, "lat84": 30.690843648858621, "name": "青羊区", "type_1": "川渝", "type_2": "地域特色", "CLUSTER_ID": 445, "CLUSTER_SIZE": 6, "CLUSTER_ID_2": null, "CLUSTER_SIZE_2": null }, "geometry": { "type": "Point", "coordinates": [ 103.946989997677889, 30.690843648858621 ] } },
{ "type": "Feature", "properties": { "rest_name": "码头故事(中海国际店)", "rest_star": 4.0, "rest_review": 580, "rest_price": 19, "rest_type": "四川火锅", "taste_score": 3.9, "environment_score": 4.0, "service_score": 3.9, "lng84": 103.92613988394709, "lat84": 30.770121775016889, "name": "金牛区", "type_1": "川渝", "type_2": "地域特色", "CLUSTER_ID": 17, "CLUSTER_SIZE": 13, "CLUSTER_ID_2": null, "CLUSTER_SIZE_2": null }, "geometry": { "type": "Point", "coordinates": [ 103.926139883947087, 30.770121775016889 ] } },
{ "type": "Feature", "properties": { "rest_name": "欢喜冒菜", "rest_star": 4.0, "rest_review": 770, "rest_price": 16, "rest_type": "冒菜", "taste_score": 4.1, "environment_score": 3.9, "service_score": 4.1, "lng84": 104.12081143719008, "lat84": 30.749906752500781, "name": "金牛区", "type_1": "川渝", "type_2": "地域特色", "CLUSTER_ID": 18, "CLUSTER_SIZE": 14, "CLUSTER_ID_2": null, "CLUSTER_SIZE_2": null }, "geometry": { "type": "Point", "coordinates": [ 104.120811437190085, 30.749906752500781 ] } },
{ "type": "Feature", "properties": { "rest_name": "码头故事火锅(琉璃店) 分店", "rest_star": 4.0, "rest_review": 618, "rest_price": 68, "rest_type": "四川火锅", "taste_score": 4.3, "environment_score": 4.3, "service_score": 4.1, "lng84": 104.16225369887653, "lat84": 30.514155952928185, "name": "锦江区", "type_1": "川渝", "type_2": "地域特色", "CLUSTER_ID": 405, "CLUSTER_SIZE": 3, "CLUSTER_ID_2": null, "CLUSTER_SIZE_2": null }, "geometry": { "type": "Point", "coordinates": [ 104.162253698876526, 30.514155952928185 ] } },
{ "type": "Feature", "properties": { "rest_name": "星巴克臻选(成都华置广场) 分店", "rest_star": 4.0, "rest_review": 593, "rest_price": 15, "rest_type": "咖啡厅", "taste_score": 4.2, "environment_score": 4.5, "service_score": 4.2, "lng84": 104.08411807181281, "lat84": 30.688994701939372, "name": "青羊区", "type_1": "甜点饮品", "type_2": "甜点饮品", "CLUSTER_ID": 391, "CLUSTER_SIZE": 28, "CLUSTER_ID_2": null, "CLUSTER_SIZE_2": null }, "geometry": { "type": "Point", "coordinates": [ 104.08411807181281, 30.688994701939372 ] } },
{ "type": "Feature", "properties": { "rest_name": "好利来(北京华联购物中心店)", "rest_star": 4.0, "rest_review": 899, "rest_price": 58, "rest_type": "面包烘焙", "taste_score": 4.2, "environment_score": 4.2, "service_score": 4.2, "lng84": 103.86995319149715, "lat84": 30.557585718321892, "name": "双流区", "type_1": "其他", "type_2": "其他", "CLUSTER_ID": 91, "CLUSTER_SIZE": 1, "CLUSTER_ID_2": null, "CLUSTER_SIZE_2": null }, "geometry": { "type": "Point", "coordinates": [ 103.869953191497146, 30.557585718321892 ] } },
{ "type": "Feature", "properties": { "rest_name": "成都瑞吉酒店·宴庭中餐厅", "rest_star": 4.5, "rest_review": 1229, "rest_price": 245, "rest_type": "粤菜馆", "taste_score": 4.7, "environment_score": 4.8, "service_score": 4.8, "lng84": 104.08151769812818, "lat84": 30.683746443896812, "name": "青羊区", "type_1": "粤菜", "type_2": "地域特色", "CLUSTER_ID": 391, "CLUSTER_SIZE": 28, "CLUSTER_ID_2": null, "CLUSTER_SIZE_2": null }, "geometry": { "type": "Point", "coordinates": [ 104.081517698128181, 30.683746443896812 ] } },
{ "type": "Feature", "properties": { "rest_name": "大斗砂锅串串(总店)", "rest_star": 4.0, "rest_review": 775, "rest_price": 74, "rest_type": "串串香", "taste_score": 4.1, "environment_score": 4.1, "service_score": 4.1, "lng84": 103.94469255176051, "lat84": 30.507045244801251, "name": "双流区", "type_1": "川渝", "type_2": "地域特色", "CLUSTER_ID": 51, "CLUSTER_SIZE": 6, "CLUSTER_ID_2": null, "CLUSTER_SIZE_2": null }, "geometry": { "type": "Point", "coordinates": [ 103.944692551760511, 30.507045244801251 ] } },
{ "type": "Feature", "properties": { "rest_name": "小馋院(麓湖店)", "rest_star": 4.5, "rest_review": 1264, "rest_price": 69, "rest_type": "川菜馆", "taste_score": 4.5, "environment_score": 4.5, "service_score": 4.5, "lng84": 104.07857675301884, "lat84": 30.403839701847499, "name": "双流区", "type_1": "川渝", "type_2": "地域特色", "CLUSTER_ID": 52, "CLUSTER_SIZE": 1, "CLUSTER_ID_2": null, "CLUSTER_SIZE_2": null }, "geometry": { "type": "Point", "coordinates": [ 104.078576753018837, 30.403839701847499 ] } },
{ "type": "Feature", "properties": { "rest_name": "天佑祥万春老卤", "rest_star": 4.0, "rest_review": 1889, "rest_price": 71, "rest_type": "卤味鸭脖", "taste_score": 4.0, "environment_score": 3.9, "service_score": 3.9, "lng84": 103.84134865112652, "lat84": 30.745874793788477, "name": "温江区", "type_1": "其他", "type_2": "其他", "CLUSTER_ID": 307, "CLUSTER_SIZE": 1, "CLUSTER_ID_2": null, "CLUSTER_SIZE_2": null }, "geometry": { "type": "Point", "coordinates": [ 103.841348651126523, 30.745874793788477 ] } },
{ "type": "Feature", "properties": { "rest_name": "天天曾记串串香(天府江南店)", "rest_star": 4.5, "rest_review": 1085, "rest_price": 45, "rest_type": "串串香", "taste_score": 4.5, "environment_score": 4.0, "service_score": 4.2, "lng84": 104.15546440058667, "lat84": 30.817545410033272, "name": "新都区", "type_1": "川渝", "type_2": "地域特色", "CLUSTER_ID": 42, "CLUSTER_SIZE": 1, "CLUSTER_ID_2": null, "CLUSTER_SIZE_2": null }, "geometry": { "type": "Point", "coordinates": [ 104.155464400586666, 30.817545410033272 ] } },
{ "type": "Feature", "properties": { "rest_name": "蜀上火锅店(东航云锦天地店) 分店", "rest_star": 4.0, "rest_review": 737, "rest_price": 92, "rest_type": "四川火锅", "taste_score": 4.3, "environment_score": 4.4, "service_score": 4.4, "lng84": 103.92490322644244, "lat84": 30.504307479496031, "name": "双流区", "type_1": "川渝", "type_2": "地域特色", "CLUSTER_ID": 53, "CLUSTER_SIZE": 6, "CLUSTER_ID_2": null, "CLUSTER_SIZE_2": null }, "geometry": { "type": "Point", "coordinates": [ 103.924903226442439, 30.504307479496031 ] } },
{ "type": "Feature", "properties": { "rest_name": "花间别院(骑士大道店)", "rest_star": 4.0, "rest_review": 717, "rest_price": 63, "rest_type": "川菜馆", "taste_score": 4.0, "environment_score": 4.0, "service_score": 3.9, "lng84": 103.85538562848137, "lat84": 30.625640840787966, "name": "温江区", "type_1": "川渝", "type_2": "地域特色", "CLUSTER_ID": 298, "CLUSTER_SIZE": 1, "CLUSTER_ID_2": null, "CLUSTER_SIZE_2": null }, "geometry": { "type": "Point", "coordinates": [ 103.855385628481372, 30.625640840787966 ] } },
{ "type": "Feature", "properties": { "rest_name": "林一家私房菜·辣炒川菜(春熙路店)", "rest_star": 4.5, "rest_review": 592, "rest_price": 140, "rest_type": "川菜馆", "taste_score": 4.1, "environment_score": 3.9, "service_score": 4.1, "lng84": 104.11269412504063, "lat84": 30.683404766128408, "name": "锦江区", "type_1": "川渝", "type_2": "地域特色", "CLUSTER_ID": 19, "CLUSTER_SIZE": 481, "CLUSTER_ID_2": null, "CLUSTER_SIZE_2": null }, "geometry": { "type": "Point", "coordinates": [ 104.112694125040633, 30.683404766128408 ] } },
{ "type": "Feature", "properties": { "rest_name": "言庭·庭院森林火锅", "rest_star": 4.0, "rest_review": 525, "rest_price": 76, "rest_type": "四川火锅", "taste_score": 4.3, "environment_score": 4.3, "service_score": 4.2, "lng84": 103.82857812425087, "lat84": 30.744767601718909, "name": "温江区", "type_1": "川渝", "type_2": "地域特色", "CLUSTER_ID": 321, "CLUSTER_SIZE": 1, "CLUSTER_ID_2": null, "CLUSTER_SIZE_2": null }, "geometry": { "type": "Point", "coordinates": [ 103.828578124250868, 30.744767601718909 ] } },
{ "type": "Feature", "properties": { "rest_name": "巴蜀大将火锅(犀浦店)", "rest_star": 4.0, "rest_review": 1303, "rest_price": 97, "rest_type": "四川火锅", "taste_score": 4.0, "environment_score": 4.0, "service_score": 4.0, "lng84": 103.97356481504895, "lat84": 30.820481801336562, "name": "郫都区", "type_1": "川渝", "type_2": "地域特色", "CLUSTER_ID": 375, "CLUSTER_SIZE": 1, "CLUSTER_ID_2": null, "CLUSTER_SIZE_2": null }, "geometry": { "type": "Point", "coordinates": [ 103.973564815048945, 30.820481801336562 ] } },
{ "type": "Feature", "properties": { "rest_name": "晏记石锅苗苗鱼·老字号(三道堰总店)", "rest_star": 4.5, "rest_review": 735, "rest_price": 53, "rest_type": "鱼火锅", "taste_score": 4.7, "environment_score": 4.6, "service_score": 4.6, "lng84": 103.91912469160114, "lat84": 30.849222095813801, "name": "郫都区", "type_1": "火锅", "type_2": "火锅", "CLUSTER_ID": 342, "CLUSTER_SIZE": 2, "CLUSTER_ID_2": null, "CLUSTER_SIZE_2": null }, "geometry": { "type": "Point", "coordinates": [ 103.919124691601141, 30.849222095813801 ] } },
{ "type": "Feature", "properties": { "rest_name": "Intro 请坐", "rest_star": 4.5, "rest_review": 528, "rest_price": 104, "rest_type": "面包烘焙", "taste_score": 4.5, "environment_score": 4.5, "service_score": 4.6, "lng84": 104.08401896236033, "lat84": 30.630364927510396, "name": "锦江区", "type_1": "其他", "type_2": "其他", "CLUSTER_ID": 19, "CLUSTER_SIZE": 481, "CLUSTER_ID_2": null, "CLUSTER_SIZE_2": null }, "geometry": { "type": "Point", "coordinates": [ 104.084018962360332, 30.630364927510396 ] } },
{ "type": "Feature", "properties": { "rest_name": "巫山纸包鱼(龙湖时代天街店)", "rest_star": 4.0, "rest_review": 625, "rest_price": 51, "rest_type": "烤鱼", "taste_score": 4.2, "environment_score": 4.1, "service_score": 4.1, "lng84": 103.89156075009029, "lat84": 30.769543191404839, "name": "郫都区", "type_1": "烧烤", "type_2": "烧烤", "CLUSTER_ID": 347, "CLUSTER_SIZE": 24, "CLUSTER_ID_2": null, "CLUSTER_SIZE_2": null }, "geometry": { "type": "Point", "coordinates": [ 103.891560750090292, 30.769543191404839 ] } },
{ "type": "Feature", "properties": { "rest_name": "韩国小胖料理自助烤肉(交院店)", "rest_star": 4.5, "rest_review": 834, "rest_price": 60, "rest_type": "烧烤烤串", "taste_score": 4.6, "environment_score": 4.6, "service_score": 4.6, "lng84": 103.81707059401933, "lat84": 30.705571157410542, "name": "温江区", "type_1": "烧烤", "type_2": "烧烤", "CLUSTER_ID": 332, "CLUSTER_SIZE": 1, "CLUSTER_ID_2": null, "CLUSTER_SIZE_2": null }, "geometry": { "type": "Point", "coordinates": [ 103.817070594019327, 30.705571157410542 ] } },
{ "type": "Feature", "properties": { "rest_name": "POLABERRY(成都店)", "rest_star": 4.0, "rest_review": 607, "rest_price": 96, "rest_type": "甜品", "taste_score": 4.0, "environment_score": 4.2, "service_score": 4.3, "lng84": 104.12106772913445, "lat84": 30.591202993236124, "name": "武侯区", "type_1": "甜点饮品", "type_2": "甜点饮品", "CLUSTER_ID": 19, "CLUSTER_SIZE": 481, "CLUSTER_ID_2": null, "CLUSTER_SIZE_2": null }, "geometry": { "type": "Point", "coordinates": [ 104.121067729134452, 30.591202993236124 ] } },
{ "type": "Feature", "properties": { "rest_name": "石烹雅安木桶鱼(龙湖时代天街店)", "rest_star": 4.5, "rest_review": 651, "rest_price": 64, "rest_type": "鱼火锅", "taste_score": 4.5, "environment_score": 4.5, "service_score": 4.5, "lng84": 103.89209826459718, "lat84": 30.768365626796335, "name": "郫都区", "type_1": "火锅", "type_2": "火锅", "CLUSTER_ID": 347, "CLUSTER_SIZE": 24, "CLUSTER_ID_2": null, "CLUSTER_SIZE_2": null }, "geometry": { "type": "Point", "coordinates": [ 103.89209826459718, 30.768365626796335 ] } },
{ "type": "Feature", "properties": { "rest_name": "勒克立方", "rest_star": 4.0, "rest_review": 596, "rest_price": 20, "rest_type": "咖啡厅", "taste_score": 4.5, "environment_score": 4.5, "service_score": 4.7, "lng84": 104.14812000909423, "lat84": 30.604811512840403, "name": "锦江区", "type_1": "甜点饮品", "type_2": "甜点饮品", "CLUSTER_ID": 19, "CLUSTER_SIZE": 481, "CLUSTER_ID_2": null, "CLUSTER_SIZE_2": null }, "geometry": { "type": "Point", "coordinates": [ 104.148120009094228, 30.604811512840403 ] } },
{ "type": "Feature", "properties": { "rest_name": "类经堂", "rest_star": 4.0, "rest_review": 1959, "rest_price": 84, "rest_type": "汤锅", "taste_score": 4.2, "environment_score": 4.4, "service_score": 4.3, "lng84": 103.89029608029365, "lat84": 30.739284953644784, "name": "温江区", "type_1": "火锅", "type_2": "火锅", "CLUSTER_ID": 458, "CLUSTER_SIZE": 1, "CLUSTER_ID_2": null, "CLUSTER_SIZE_2": null }, "geometry": { "type": "Point", "coordinates": [ 103.890296080293652, 30.739284953644784 ] } },
{ "type": "Feature", "properties": { "rest_name": "那年·遇见串串(光华大道店)", "rest_star": 4.0, "rest_review": 564, "rest_price": 80, "rest_type": "串串香", "taste_score": 4.5, "environment_score": 4.1, "service_score": 4.2, "lng84": 103.88674042270907, "lat84": 30.681043554321619, "name": "青羊区", "type_1": "川渝", "type_2": "地域特色", "CLUSTER_ID": 455, "CLUSTER_SIZE": 1, "CLUSTER_ID_2": null, "CLUSTER_SIZE_2": null }, "geometry": { "type": "Point", "coordinates": [ 103.886740422709067, 30.681043554321619 ] } },
{ "type": "Feature", "properties": { "rest_name": "大融厨鸡毛店(东山店) 分店", "rest_star": 4.0, "rest_review": 615, "rest_price": 61, "rest_type": "川菜馆", "taste_score": 4.6, "environment_score": 4.5, "service_score": 4.3, "lng84": 104.24711110031031, "lat84": 30.532648267843097, "name": "龙泉驿区", "type_1": "川渝", "type_2": "地域特色", "CLUSTER_ID": 474, "CLUSTER_SIZE": 1, "CLUSTER_ID_2": null, "CLUSTER_SIZE_2": null }, "geometry": { "type": "Point", "coordinates": [ 104.247111100310306, 30.532648267843097 ] } },
{ "type": "Feature", "properties": { "rest_name": "马路边边麻辣烫(十陵店)", "rest_star": 4.5, "rest_review": 839, "rest_price": 63, "rest_type": "串串香", "taste_score": 4.5, "environment_score": 4.4, "service_score": 4.5, "lng84": 104.20557520561383, "lat84": 30.534476339200385, "name": "龙泉驿区", "type_1": "川渝", "type_2": "地域特色", "CLUSTER_ID": 483, "CLUSTER_SIZE": 1, "CLUSTER_ID_2": null, "CLUSTER_SIZE_2": null }, "geometry": { "type": "Point", "coordinates": [ 104.205575205613826, 30.534476339200385 ] } },
{ "type": "Feature", "properties": { "rest_name": "鸡毛店·川菜(沙湾店)", "rest_star": 5.0, "rest_review": 1752, "rest_price": 59, "rest_type": "川菜馆", "taste_score": 4.8, "environment_score": 4.8, "service_score": 4.8, "lng84": 104.01308871073631, "lat84": 30.766189594309896, "name": "金牛区", "type_1": "川渝", "type_2": "地域特色", "CLUSTER_ID": 1, "CLUSTER_SIZE": 5, "CLUSTER_ID_2": null, "CLUSTER_SIZE_2": null }, "geometry": { "type": "Point", "coordinates": [ 104.013088710736312, 30.766189594309896 ] } },
{ "type": "Feature", "properties": { "rest_name": "满江红火锅(龙祥店)", "rest_star": 4.0, "rest_review": 569, "rest_price": 72, "rest_type": "火锅", "taste_score": 4.2, "environment_score": 4.5, "service_score": 4.4, "lng84": 104.30164829319719, "lat84": 30.665532839112618, "name": "龙泉驿区", "type_1": "火锅", "type_2": "火锅", "CLUSTER_ID": 493, "CLUSTER_SIZE": 1, "CLUSTER_ID_2": null, "CLUSTER_SIZE_2": null }, "geometry": { "type": "Point", "coordinates": [ 104.301648293197189, 30.665532839112618 ] } },
{ "type": "Feature", "properties": { "rest_name": "将个烂就麻辣烫", "rest_star": 4.5, "rest_review": 721, "rest_price": 71, "rest_type": "串串香", "taste_score": 4.6, "environment_score": 4.5, "service_score": 4.6, "lng84": 104.0286411109041, "lat84": 30.757854952471796, "name": "金牛区", "type_1": "川渝", "type_2": "地域特色", "CLUSTER_ID": 6, "CLUSTER_SIZE": 12, "CLUSTER_ID_2": null, "CLUSTER_SIZE_2": null }, "geometry": { "type": "Point", "coordinates": [ 104.028641110904104, 30.757854952471796 ] } },
{ "type": "Feature", "properties": { "rest_name": "四方阁·玉琢金沙店 分店", "rest_star": 4.5, "rest_review": 1215, "rest_price": 96, "rest_type": "川菜馆", "taste_score": 4.3, "environment_score": 4.3, "service_score": 4.3, "lng84": 103.95235684716555, "lat84": 30.745454209216465, "name": "金牛区", "type_1": "川渝", "type_2": "地域特色", "CLUSTER_ID": 4, "CLUSTER_SIZE": 9, "CLUSTER_ID_2": null, "CLUSTER_SIZE_2": null }, "geometry": { "type": "Point", "coordinates": [ 103.952356847165547, 30.745454209216465 ] } },
{ "type": "Feature", "properties": { "rest_name": "百年神厨·地道川菜(格林城店)", "rest_star": 4.0, "rest_review": 808, "rest_price": 68, "rest_type": "川菜馆", "taste_score": 4.4, "environment_score": 4.4, "service_score": 4.4, "lng84": 103.99039733818427, "lat84": 30.436213234516796, "name": "双流区", "type_1": "川渝", "type_2": "地域特色", "CLUSTER_ID": 111, "CLUSTER_SIZE": 2, "CLUSTER_ID_2": null, "CLUSTER_SIZE_2": null }, "geometry": { "type": "Point", "coordinates": [ 103.990397338184266, 30.436213234516796 ] } },
{ "type": "Feature", "properties": { "rest_name": "耍酒馆(马家花园店)", "rest_star": 4.5, "rest_review": 520, "rest_price": 104, "rest_type": "川菜馆", "taste_score": 4.5, "environment_score": 4.5, "service_score": 4.5, "lng84": 104.04263906186281, "lat84": 30.765631584499843, "name": "金牛区", "type_1": "川渝", "type_2": "地域特色", "CLUSTER_ID": 5, "CLUSTER_SIZE": 11, "CLUSTER_ID_2": null, "CLUSTER_SIZE_2": null }, "geometry": { "type": "Point", "coordinates": [ 104.042639061862815, 30.765631584499843 ] } },
{ "type": "Feature", "properties": { "rest_name": "院坝龍门镇·辣卤火锅", "rest_star": 4.0, "rest_review": 719, "rest_price": 101, "rest_type": "四川火锅", "taste_score": 4.4, "environment_score": 4.5, "service_score": 4.2, "lng84": 104.26462092567293, "lat84": 30.728497299365877, "name": "成华区", "type_1": "川渝", "type_2": "地域特色", "CLUSTER_ID": 155, "CLUSTER_SIZE": 3, "CLUSTER_ID_2": null, "CLUSTER_SIZE_2": null }, "geometry": { "type": "Point", "coordinates": [ 104.264620925672929, 30.728497299365877 ] } },
{ "type": "Feature", "properties": { "rest_name": "云里小坐·洛带见", "rest_star": 4.0, "rest_review": 541, "rest_price": 109, "rest_type": "川菜馆", "taste_score": 3.9, "environment_score": 4.4, "service_score": 4.1, "lng84": 104.3148139646193, "lat84": 30.661342996541357, "name": "龙泉驿区", "type_1": "川渝", "type_2": "地域特色", "CLUSTER_ID": 464, "CLUSTER_SIZE": 1, "CLUSTER_ID_2": null, "CLUSTER_SIZE_2": null }, "geometry": { "type": "Point", "coordinates": [ 104.314813964619304, 30.661342996541357 ] } },
{ "type": "Feature", "properties": { "rest_name": "百年神厨·地道川菜(万科第五城店) 分店", "rest_star": 4.5, "rest_review": 796, "rest_price": 65, "rest_type": "川菜馆", "taste_score": 4.7, "environment_score": 4.7, "service_score": 4.7, "lng84": 103.8824101103914, "lat84": 30.603132217245879, "name": "双流区", "type_1": "川渝", "type_2": "地域特色", "CLUSTER_ID": 113, "CLUSTER_SIZE": 1, "CLUSTER_ID_2": null, "CLUSTER_SIZE_2": null }, "geometry": { "type": "Point", "coordinates": [ 103.882410110391405, 30.603132217245879 ] } },
{ "type": "Feature", "properties": { "rest_name": "小草垛田野农场", "rest_star": 4.5, "rest_review": 705, "rest_price": 129, "rest_type": "东南亚菜", "taste_score": 4.5, "environment_score": 4.8, "service_score": 4.5, "lng84": 104.16554545207707, "lat84": 30.456801659383562, "name": "双流区", "type_1": "东南亚菜", "type_2": "东南亚菜", "CLUSTER_ID": 114, "CLUSTER_SIZE": 1, "CLUSTER_ID_2": null, "CLUSTER_SIZE_2": null }, "geometry": { "type": "Point", "coordinates": [ 104.165545452077069, 30.456801659383562 ] } },
{ "type": "Feature", "properties": { "rest_name": "楠柏弯生态火锅山庄(胜利店)", "rest_star": 4.5, "rest_review": 1888, "rest_price": 106, "rest_type": "火锅", "taste_score": 4.7, "environment_score": 4.7, "service_score": 4.6, "lng84": 103.90843111003052, "lat84": 30.475333472134142, "name": "双流区", "type_1": "火锅", "type_2": "火锅", "CLUSTER_ID": 105, "CLUSTER_SIZE": 1, "CLUSTER_ID_2": null, "CLUSTER_SIZE_2": null }, "geometry": { "type": "Point", "coordinates": [ 103.90843111003052, 30.475333472134142 ] } },
{ "type": "Feature", "properties": { "rest_name": "味之绝热血美蛙鱼(青羊优品道店)", "rest_star": 4.0, "rest_review": 873, "rest_price": 86, "rest_type": "鱼火锅", "taste_score": 4.3, "environment_score": 4.4, "service_score": 4.3, "lng84": 103.92816852084923, "lat84": 30.650531975132754, "name": "青羊区", "type_1": "火锅", "type_2": "火锅", "CLUSTER_ID": 429, "CLUSTER_SIZE": 17, "CLUSTER_ID_2": null, "CLUSTER_SIZE_2": null }, "geometry": { "type": "Point", "coordinates": [ 103.928168520849226, 30.650531975132754 ] } },
{ "type": "Feature", "properties": { "rest_name": "独轮火锅(九江店) 分店", "rest_star": 4.0, "rest_review": 807, "rest_price": 89, "rest_type": "火锅", "taste_score": 4.4, "environment_score": 4.5, "service_score": 4.5, "lng84": 103.87902499735792, "lat84": 30.599318017718165, "name": "双流区", "type_1": "火锅", "type_2": "火锅", "CLUSTER_ID": 115, "CLUSTER_SIZE": 1, "CLUSTER_ID_2": null, "CLUSTER_SIZE_2": null }, "geometry": { "type": "Point", "coordinates": [ 103.879024997357917, 30.599318017718165 ] } },
{ "type": "Feature", "properties": { "rest_name": "猫瘾·猫咖·鸭咖", "rest_star": 4.0, "rest_review": 628, "rest_price": 48, "rest_type": "咖啡厅", "taste_score": 4.1, "environment_score": 4.4, "service_score": 4.4, "lng84": 103.92993646504999, "lat84": 30.635559339453284, "name": "青羊区", "type_1": "甜点饮品", "type_2": "甜点饮品", "CLUSTER_ID": 429, "CLUSTER_SIZE": 17, "CLUSTER_ID_2": null, "CLUSTER_SIZE_2": null }, "geometry": { "type": "Point", "coordinates": [ 103.929936465049991, 30.635559339453284 ] } },
{ "type": "Feature", "properties": { "rest_name": "功夫兔", "rest_star": 4.0, "rest_review": 574, "rest_price": 82, "rest_type": "川菜馆", "taste_score": 4.4, "environment_score": 4.3, "service_score": 4.3, "lng84": 104.26447212918183, "lat84": 30.620618902295021, "name": "成华区", "type_1": "川渝", "type_2": "地域特色", "CLUSTER_ID": 127, "CLUSTER_SIZE": 18, "CLUSTER_ID_2": null, "CLUSTER_SIZE_2": null }, "geometry": { "type": "Point", "coordinates": [ 104.264472129181826, 30.620618902295021 ] } },
{ "type": "Feature", "properties": { "rest_name": "兰堂家宴", "rest_star": 4.0, "rest_review": 512, "rest_price": 128, "rest_type": "川菜馆", "taste_score": 4.2, "environment_score": 4.7, "service_score": 4.3, "lng84": 103.92550837696959, "lat84": 30.700898152769458, "name": "青羊区", "type_1": "川渝", "type_2": "地域特色", "CLUSTER_ID": 447, "CLUSTER_SIZE": 13, "CLUSTER_ID_2": null, "CLUSTER_SIZE_2": null }, "geometry": { "type": "Point", "coordinates": [ 103.925508376969589, 30.700898152769458 ] } },
{ "type": "Feature", "properties": { "rest_name": "功夫兔", "rest_star": 4.0, "rest_review": 574, "rest_price": 82, "rest_type": "川菜馆", "taste_score": 4.4, "environment_score": 4.3, "service_score": 4.3, "lng84": 104.26447212918183, "lat84": 30.620618902295021, "name": "成华区", "type_1": "川渝", "type_2": "地域特色", "CLUSTER_ID": 127, "CLUSTER_SIZE": 18, "CLUSTER_ID_2": null, "CLUSTER_SIZE_2": null }, "geometry": { "type": "Point", "coordinates": [ 104.264472129181826, 30.620618902295021 ] } },
{ "type": "Feature", "properties": { "rest_name": "煌记猪肚鸡(清江西路店)", "rest_star": 4.0, "rest_review": 518, "rest_price": 77, "rest_type": "猪肚鸡火锅", "taste_score": 4.1, "environment_score": 4.2, "service_score": 4.2, "lng84": 103.91933973125838, "lat84": 30.703297090171308, "name": "青羊区", "type_1": "火锅", "type_2": "火锅", "CLUSTER_ID": 447, "CLUSTER_SIZE": 13, "CLUSTER_ID_2": null, "CLUSTER_SIZE_2": null }, "geometry": { "type": "Point", "coordinates": [ 103.919339731258376, 30.703297090171308 ] } },
{ "type": "Feature", "properties": { "rest_name": "马回头把把烧(总店)", "rest_star": 4.0, "rest_review": 2321, "rest_price": 91, "rest_type": "融合烤肉", "taste_score": 4.1, "environment_score": 3.9, "service_score": 3.9, "lng84": 104.1480931793226, "lat84": 30.468186126305277, "name": "双流区", "type_1": "烧烤", "type_2": "烧烤", "CLUSTER_ID": 72, "CLUSTER_SIZE": 1, "CLUSTER_ID_2": null, "CLUSTER_SIZE_2": null }, "geometry": { "type": "Point", "coordinates": [ 104.148093179322601, 30.468186126305277 ] } },
{ "type": "Feature", "properties": { "rest_name": "琴台廊桥", "rest_star": 4.5, "rest_review": 1698, "rest_price": 201, "rest_type": "川菜馆", "taste_score": 4.6, "environment_score": 4.8, "service_score": 4.7, "lng84": 103.98344594249602, "lat84": 30.64447212642979, "name": "青羊区", "type_1": "川渝", "type_2": "地域特色", "CLUSTER_ID": 441, "CLUSTER_SIZE": 3, "CLUSTER_ID_2": null, "CLUSTER_SIZE_2": null }, "geometry": { "type": "Point", "coordinates": [ 103.983445942496019, 30.64447212642979 ] } },
{ "type": "Feature", "properties": { "rest_name": "三姐旺火鱼", "rest_star": 5.0, "rest_review": 956, "rest_price": 61, "rest_type": "鱼火锅", "taste_score": 4.8, "environment_score": 4.8, "service_score": 4.8, "lng84": 103.93682214659073, "lat84": 30.47480790870982, "name": "双流区", "type_1": "火锅", "type_2": "火锅", "CLUSTER_ID": 79, "CLUSTER_SIZE": 1, "CLUSTER_ID_2": null, "CLUSTER_SIZE_2": null }, "geometry": { "type": "Point", "coordinates": [ 103.936822146590728, 30.47480790870982 ] } },
{ "type": "Feature", "properties": { "rest_name": "吹得牛纸包鱼", "rest_star": 4.0, "rest_review": 520, "rest_price": 48, "rest_type": "烤鱼", "taste_score": 4.5, "environment_score": 3.9, "service_score": 4.2, "lng84": 103.97032904058688, "lat84": 30.721854594094008, "name": "青羊区", "type_1": "烧烤", "type_2": "烧烤", "CLUSTER_ID": 439, "CLUSTER_SIZE": 5, "CLUSTER_ID_2": null, "CLUSTER_SIZE_2": null }, "geometry": { "type": "Point", "coordinates": [ 103.970329040586876, 30.721854594094008 ] } },
{ "type": "Feature", "properties": { "rest_name": "不二山房", "rest_star": 4.5, "rest_review": 1038, "rest_price": 163, "rest_type": "私房菜", "taste_score": 4.5, "environment_score": 4.6, "service_score": 4.5, "lng84": 104.15976187736851, "lat84": 30.438873830706157, "name": "双流区", "type_1": "其他", "type_2": "其他", "CLUSTER_ID": 74, "CLUSTER_SIZE": 1, "CLUSTER_ID_2": null, "CLUSTER_SIZE_2": null }, "geometry": { "type": "Point", "coordinates": [ 104.15976187736851, 30.438873830706157 ] } },
{ "type": "Feature", "properties": { "rest_name": "一品汤鲍(金沙店)", "rest_star": 4.0, "rest_review": 1202, "rest_price": 45, "rest_type": "汤锅", "taste_score": 4.2, "environment_score": 4.3, "service_score": 3.9, "lng84": 103.93835704961941, "lat84": 30.723715925979771, "name": "青羊区", "type_1": "火锅", "type_2": "火锅", "CLUSTER_ID": 446, "CLUSTER_SIZE": 12, "CLUSTER_ID_2": null, "CLUSTER_SIZE_2": null }, "geometry": { "type": "Point", "coordinates": [ 103.938357049619412, 30.723715925979771 ] } },
{ "type": "Feature", "properties": { "rest_name": "昊·来了寿司(天府新区一店)", "rest_star": 4.0, "rest_review": 765, "rest_price": 72, "rest_type": "寿司", "taste_score": 4.2, "environment_score": 4.1, "service_score": 4.2, "lng84": 104.05790942980673, "lat84": 30.360463056177643, "name": "双流区", "type_1": "日本菜", "type_2": "日本菜", "CLUSTER_ID": 71, "CLUSTER_SIZE": 1, "CLUSTER_ID_2": null, "CLUSTER_SIZE_2": null }, "geometry": { "type": "Point", "coordinates": [ 104.057909429806728, 30.360463056177643 ] } },
{ "type": "Feature", "properties": { "rest_name": "乱隐烧肉", "rest_star": 4.5, "rest_review": 569, "rest_price": 87, "rest_type": "融合烤肉", "taste_score": 4.7, "environment_score": 4.3, "service_score": 4.8, "lng84": 103.89344441963277, "lat84": 30.697889632264062, "name": "青羊区", "type_1": "烧烤", "type_2": "烧烤", "CLUSTER_ID": 444, "CLUSTER_SIZE": 7, "CLUSTER_ID_2": null, "CLUSTER_SIZE_2": null }, "geometry": { "type": "Point", "coordinates": [ 103.893444419632772, 30.697889632264062 ] } },
{ "type": "Feature", "properties": { "rest_name": "火焰山西昌火盆烧烤(双流总店)", "rest_star": 4.5, "rest_review": 810, "rest_price": 84, "rest_type": "融合烤肉", "taste_score": 4.6, "environment_score": 4.5, "service_score": 4.5, "lng84": 103.94473272846282, "lat84": 30.50513281230246, "name": "双流区", "type_1": "烧烤", "type_2": "烧烤", "CLUSTER_ID": 102, "CLUSTER_SIZE": 1, "CLUSTER_ID_2": null, "CLUSTER_SIZE_2": null }, "geometry": { "type": "Point", "coordinates": [ 103.944732728462824, 30.50513281230246 ] } },
{ "type": "Feature", "properties": { "rest_name": "茅庐", "rest_star": 4.0, "rest_review": 572, "rest_price": 16, "rest_type": "川菜馆", "taste_score": 3.9, "environment_score": 4.4, "service_score": 3.9, "lng84": 103.9424068823046, "lat84": 30.727448591234346, "name": "青羊区", "type_1": "川渝", "type_2": "地域特色", "CLUSTER_ID": 436, "CLUSTER_SIZE": 5, "CLUSTER_ID_2": null, "CLUSTER_SIZE_2": null }, "geometry": { "type": "Point", "coordinates": [ 103.942406882304596, 30.727448591234346 ] } },
{ "type": "Feature", "properties": { "rest_name": "东坡山庄·生态火锅(兴隆店)", "rest_star": 4.5, "rest_review": 628, "rest_price": 98, "rest_type": "四川火锅", "taste_score": 4.5, "environment_score": 4.6, "service_score": 4.5, "lng84": 104.10793746146517, "lat84": 30.409763686313106, "name": "双流区", "type_1": "川渝", "type_2": "地域特色", "CLUSTER_ID": 99, "CLUSTER_SIZE": 1, "CLUSTER_ID_2": null, "CLUSTER_SIZE_2": null }, "geometry": { "type": "Point", "coordinates": [ 104.10793746146517, 30.409763686313106 ] } },
{ "type": "Feature", "properties": { "rest_name": "晶泽雅厨(草堂店)", "rest_star": 4.5, "rest_review": 847, "rest_price": 94, "rest_type": "川菜馆", "taste_score": 4.5, "environment_score": 4.5, "service_score": 4.5, "lng84": 103.95299622611847, "lat84": 30.655120198839651, "name": "青羊区", "type_1": "川渝", "type_2": "地域特色", "CLUSTER_ID": 433, "CLUSTER_SIZE": 14, "CLUSTER_ID_2": null, "CLUSTER_SIZE_2": null }, "geometry": { "type": "Point", "coordinates": [ 103.952996226118472, 30.655120198839651 ] } },
{ "type": "Feature", "properties": { "rest_name": "聚极大龙农庄(双流店)", "rest_star": 4.0, "rest_review": 725, "rest_price": 113, "rest_type": "重庆火锅", "taste_score": 4.1, "environment_score": 4.2, "service_score": 4.1, "lng84": 103.93137146721779, "lat84": 30.461645866452425, "name": "双流区", "type_1": "川渝", "type_2": "地域特色", "CLUSTER_ID": 92, "CLUSTER_SIZE": 1, "CLUSTER_ID_2": null, "CLUSTER_SIZE_2": null }, "geometry": { "type": "Point", "coordinates": [ 103.931371467217787, 30.461645866452425 ] } },
{ "type": "Feature", "properties": { "rest_name": "嗨岛兔·四川特产烤兔兔头(中坝店)", "rest_star": 4.0, "rest_review": 529, "rest_price": 49, "rest_type": "兔头/兔丁", "taste_score": 3.9, "environment_score": 3.9, "service_score": 3.9, "lng84": 103.89163859262352, "lat84": 30.679685223403734, "name": "青羊区", "type_1": "川渝", "type_2": "地域特色", "CLUSTER_ID": 438, "CLUSTER_SIZE": 19, "CLUSTER_ID_2": null, "CLUSTER_SIZE_2": null }, "geometry": { "type": "Point", "coordinates": [ 103.891638592623522, 30.679685223403734 ] } },
{ "type": "Feature", "properties": { "rest_name": "巴蜀大当家(城北中街总店)", "rest_star": 4.0, "rest_review": 1082, "rest_price": 90, "rest_type": "四川火锅", "taste_score": 4.4, "environment_score": 4.4, "service_score": 4.4, "lng84": 103.89266590379954, "lat84": 30.536429017226808, "name": "双流区", "type_1": "川渝", "type_2": "地域特色", "CLUSTER_ID": 90, "CLUSTER_SIZE": 8, "CLUSTER_ID_2": null, "CLUSTER_SIZE_2": null }, "geometry": { "type": "Point", "coordinates": [ 103.892665903799539, 30.536429017226808 ] } },
{ "type": "Feature", "properties": { "rest_name": "蜀上肴(青羊宫店) 分店", "rest_star": 4.0, "rest_review": 576, "rest_price": 69, "rest_type": "川菜馆", "taste_score": 4.6, "environment_score": 4.3, "service_score": 4.5, "lng84": 103.97640548262287, "lat84": 30.682723152747155, "name": "金牛区", "type_1": "川渝", "type_2": "地域特色", "CLUSTER_ID": 435, "CLUSTER_SIZE": 5, "CLUSTER_ID_2": null, "CLUSTER_SIZE_2": null }, "geometry": { "type": "Point", "coordinates": [ 103.976405482622866, 30.682723152747155 ] } },
{ "type": "Feature", "properties": { "rest_name": "小聚会地道川菜小馆(学苑路店)", "rest_star": 4.0, "rest_review": 587, "rest_price": 69, "rest_type": "川菜馆", "taste_score": 4.4, "environment_score": 4.3, "service_score": 4.1, "lng84": 104.27709675422001, "lat84": 30.806154498980998, "name": "青白江区", "type_1": "川渝", "type_2": "地域特色", "CLUSTER_ID": 427, "CLUSTER_SIZE": 1, "CLUSTER_ID_2": null, "CLUSTER_SIZE_2": null }, "geometry": { "type": "Point", "coordinates": [ 104.277096754220011, 30.806154498980998 ] } },
{ "type": "Feature", "properties": { "rest_name": "陈家祠堂老版川菜(汇智惠众餐馆)", "rest_star": 4.5, "rest_review": 967, "rest_price": 71, "rest_type": "川菜馆", "taste_score": 4.8, "environment_score": 4.8, "service_score": 4.5, "lng84": 104.30135535010533, "lat84": 30.797233631905144, "name": "青白江区", "type_1": "川渝", "type_2": "地域特色", "CLUSTER_ID": 424, "CLUSTER_SIZE": 1, "CLUSTER_ID_2": null, "CLUSTER_SIZE_2": null }, "geometry": { "type": "Point", "coordinates": [ 104.301355350105325, 30.797233631905144 ] } },
{ "type": "Feature", "properties": { "rest_name": "黄记煌三汁焖锅(龙湖滨江天街店)", "rest_star": 4.0, "rest_review": 528, "rest_price": 75, "rest_type": "焖锅", "taste_score": 3.9, "environment_score": 4.1, "service_score": 3.9, "lng84": 104.24857625915494, "lat84": 30.711155570199452, "name": "成华区", "type_1": "其他", "type_2": "其他", "CLUSTER_ID": 125, "CLUSTER_SIZE": 115, "CLUSTER_ID_2": null, "CLUSTER_SIZE_2": null }, "geometry": { "type": "Point", "coordinates": [ 104.248576259154945, 30.711155570199452 ] } },
{ "type": "Feature", "properties": { "rest_name": "西窑故事·甲鱼·江湖菜(贝森路店)", "rest_star": 4.0, "rest_review": 773, "rest_price": 80, "rest_type": "川菜馆", "taste_score": 4.4, "environment_score": 4.2, "service_score": 4.2, "lng84": 103.90952018032635, "lat84": 30.679573705979326, "name": "青羊区", "type_1": "川渝", "type_2": "地域特色", "CLUSTER_ID": 430, "CLUSTER_SIZE": 25, "CLUSTER_ID_2": null, "CLUSTER_SIZE_2": null }, "geometry": { "type": "Point", "coordinates": [ 103.909520180326354, 30.679573705979326 ] } },
{ "type": "Feature", "properties": { "rest_name": "书亦烧仙草(双流学府店)", "rest_star": 4.0, "rest_review": 826, "rest_price": 79, "rest_type": "茶饮果汁", "taste_score": 4.5, "environment_score": 4.5, "service_score": 4.5, "lng84": 103.91991076028543, "lat84": 30.521558507962194, "name": "武侯区", "type_1": "甜点饮品", "type_2": "甜点饮品", "CLUSTER_ID": 121, "CLUSTER_SIZE": 1, "CLUSTER_ID_2": null, "CLUSTER_SIZE_2": null }, "geometry": { "type": "Point", "coordinates": [ 103.919910760285433, 30.521558507962194 ] } },
{ "type": "Feature", "properties": { "rest_name": "千香引铁盘烤肉(贝新巷店)", "rest_star": 4.5, "rest_review": 546, "rest_price": 50, "rest_type": "融合烤肉", "taste_score": 4.7, "environment_score": 4.1, "service_score": 4.5, "lng84": 103.92187668119932, "lat84": 30.672279368950271, "name": "青羊区", "type_1": "烧烤", "type_2": "烧烤", "CLUSTER_ID": 430, "CLUSTER_SIZE": 25, "CLUSTER_ID_2": null, "CLUSTER_SIZE_2": null }, "geometry": { "type": "Point", "coordinates": [ 103.921876681199322, 30.672279368950271 ] } },
{ "type": "Feature", "properties": { "rest_name": "中介食所云南烧烤(猛追湾店)", "rest_star": 4.5, "rest_review": 704, "rest_price": 85, "rest_type": "烤串", "taste_score": 4.6, "environment_score": 4.6, "service_score": 4.6, "lng84": 104.18301578580174, "lat84": 30.710519179435266, "name": "成华区", "type_1": "烧烤", "type_2": "烧烤", "CLUSTER_ID": 125, "CLUSTER_SIZE": 115, "CLUSTER_ID_2": null, "CLUSTER_SIZE_2": null }, "geometry": { "type": "Point", "coordinates": [ 104.183015785801743, 30.710519179435266 ] } },
{ "type": "Feature", "properties": { "rest_name": "忆咖啡train西餐", "rest_star": 4.0, "rest_review": 526, "rest_price": 23, "rest_type": "咖啡厅", "taste_score": 3.9, "environment_score": 4.3, "service_score": 4.1, "lng84": 104.24838101288843, "lat84": 30.719373550551811, "name": "成华区", "type_1": "甜点饮品", "type_2": "甜点饮品", "CLUSTER_ID": 125, "CLUSTER_SIZE": 115, "CLUSTER_ID_2": null, "CLUSTER_SIZE_2": null }, "geometry": { "type": "Point", "coordinates": [ 104.24838101288843, 30.719373550551811 ] } },
{ "type": "Feature", "properties": { "rest_name": "如意老火锅(339店)", "rest_star": 4.0, "rest_review": 653, "rest_price": 39, "rest_type": "重庆火锅", "taste_score": 4.3, "environment_score": 3.9, "service_score": 3.9, "lng84": 104.18518187149304, "lat84": 30.709351510307243, "name": "成华区", "type_1": "川渝", "type_2": "地域特色", "CLUSTER_ID": 125, "CLUSTER_SIZE": 115, "CLUSTER_ID_2": null, "CLUSTER_SIZE_2": null }, "geometry": { "type": "Point", "coordinates": [ 104.185181871493043, 30.709351510307243 ] } },
{ "type": "Feature", "properties": { "rest_name": "豪客来牛排(建设路店) 分店", "rest_star": 4.0, "rest_review": 578, "rest_price": 60, "rest_type": "牛排", "taste_score": 3.9, "environment_score": 4.1, "service_score": 3.9, "lng84": 104.20750600722468, "lat84": 30.727266415301525, "name": "成华区", "type_1": "西餐", "type_2": "西餐", "CLUSTER_ID": 125, "CLUSTER_SIZE": 115, "CLUSTER_ID_2": null, "CLUSTER_SIZE_2": null }, "geometry": { "type": "Point", "coordinates": [ 104.20750600722468, 30.727266415301525 ] } },
{ "type": "Feature", "properties": { "rest_name": "根据地冷锅串串冒菜(保利店)", "rest_star": 4.5, "rest_review": 795, "rest_price": 58, "rest_type": "串串香", "taste_score": 4.7, "environment_score": 4.2, "service_score": 4.7, "lng84": 104.06786098725414, "lat84": 30.572211397219316, "name": "武侯区", "type_1": "川渝", "type_2": "地域特色", "CLUSTER_ID": 219, "CLUSTER_SIZE": 162, "CLUSTER_ID_2": null, "CLUSTER_SIZE_2": null }, "geometry": { "type": "Point", "coordinates": [ 104.067860987254136, 30.572211397219316 ] } },
{ "type": "Feature", "properties": { "rest_name": "谭家(玉林南路店)", "rest_star": 5.0, "rest_review": 683, "rest_price": 49, "rest_type": "串串香", "taste_score": 4.8, "environment_score": 4.7, "service_score": 4.8, "lng84": 104.02122018961461, "lat84": 30.56639571964222, "name": "武侯区", "type_1": "川渝", "type_2": "地域特色", "CLUSTER_ID": 219, "CLUSTER_SIZE": 162, "CLUSTER_ID_2": null, "CLUSTER_SIZE_2": null }, "geometry": { "type": "Point", "coordinates": [ 104.02122018961461, 30.56639571964222 ] } },
{ "type": "Feature", "properties": { "rest_name": "一口芝士(玉林西路店)", "rest_star": 4.0, "rest_review": 904, "rest_price": 39, "rest_type": "面包烘焙", "taste_score": 4.6, "environment_score": 4.1, "service_score": 4.2, "lng84": 104.00112489906574, "lat84": 30.581164534150446, "name": "武侯区", "type_1": "其他", "type_2": "其他", "CLUSTER_ID": 219, "CLUSTER_SIZE": 162, "CLUSTER_ID_2": null, "CLUSTER_SIZE_2": null }, "geometry": { "type": "Point", "coordinates": [ 104.001124899065744, 30.581164534150446 ] } },
{ "type": "Feature", "properties": { "rest_name": "麦香园蛋糕(一小店)", "rest_star": 4.0, "rest_review": 578, "rest_price": 49, "rest_type": "面包烘焙", "taste_score": 4.1, "environment_score": 4.1, "service_score": 4.2, "lng84": 104.01891430334706, "lat84": 30.857473834103519, "name": "新都区", "type_1": "其他", "type_2": "其他", "CLUSTER_ID": 172, "CLUSTER_SIZE": 1, "CLUSTER_ID_2": null, "CLUSTER_SIZE_2": null }, "geometry": { "type": "Point", "coordinates": [ 104.01891430334706, 30.857473834103519 ] } },
{ "type": "Feature", "properties": { "rest_name": "五河渔庄(新津店)", "rest_star": 4.5, "rest_review": 803, "rest_price": 85, "rest_type": "川菜馆", "taste_score": 4.7, "environment_score": 4.7, "service_score": 4.7, "lng84": 103.84837039398926, "lat84": 30.42900303956862, "name": "新津区", "type_1": "川渝", "type_2": "地域特色", "CLUSTER_ID": 169, "CLUSTER_SIZE": 1, "CLUSTER_ID_2": null, "CLUSTER_SIZE_2": null }, "geometry": { "type": "Point", "coordinates": [ 103.848370393989256, 30.42900303956862 ] } },
{ "type": "Feature", "properties": { "rest_name": "小融合1862(大丰店)", "rest_star": 5.0, "rest_review": 560, "rest_price": 72, "rest_type": "川菜馆", "taste_score": 4.8, "environment_score": 4.8, "service_score": 4.8, "lng84": 104.05361382362773, "lat84": 30.834930784707179, "name": "新都区", "type_1": "川渝", "type_2": "地域特色", "CLUSTER_ID": 174, "CLUSTER_SIZE": 1, "CLUSTER_ID_2": null, "CLUSTER_SIZE_2": null }, "geometry": { "type": "Point", "coordinates": [ 104.053613823627728, 30.834930784707179 ] } },
{ "type": "Feature", "properties": { "rest_name": "五帅炭火鱼(新都店)", "rest_star": 4.0, "rest_review": 506, "rest_price": 63, "rest_type": "炭火锅", "taste_score": 4.2, "environment_score": 4.2, "service_score": 4.1, "lng84": 104.1577120336097, "lat84": 30.839098759265717, "name": "新都区", "type_1": "火锅", "type_2": "火锅", "CLUSTER_ID": 198, "CLUSTER_SIZE": 1, "CLUSTER_ID_2": null, "CLUSTER_SIZE_2": null }, "geometry": { "type": "Point", "coordinates": [ 104.157712033609698, 30.839098759265717 ] } },
{ "type": "Feature", "properties": { "rest_name": "贺氏洪七公吃串串(大丰直营店)", "rest_star": 4.5, "rest_review": 675, "rest_price": 59, "rest_type": "串串香", "taste_score": 4.6, "environment_score": 4.6, "service_score": 4.6, "lng84": 104.06593460424547, "lat84": 30.833446120348572, "name": "新都区", "type_1": "川渝", "type_2": "地域特色", "CLUSTER_ID": 192, "CLUSTER_SIZE": 1, "CLUSTER_ID_2": null, "CLUSTER_SIZE_2": null }, "geometry": { "type": "Point", "coordinates": [ 104.06593460424547, 30.833446120348572 ] } },
{ "type": "Feature", "properties": { "rest_name": "钢五区节子串串香", "rest_star": 4.5, "rest_review": 596, "rest_price": 76, "rest_type": "串串香", "taste_score": 4.4, "environment_score": 4.1, "service_score": 4.3, "lng84": 104.20735504839224, "lat84": 30.589359792576044, "name": "锦江区", "type_1": "川渝", "type_2": "地域特色", "CLUSTER_ID": 144, "CLUSTER_SIZE": 14, "CLUSTER_ID_2": null, "CLUSTER_SIZE_2": null }, "geometry": { "type": "Point", "coordinates": [ 104.207355048392245, 30.589359792576044 ] } },
{ "type": "Feature", "properties": { "rest_name": "森宏鱼庄(新都店)", "rest_star": 4.5, "rest_review": 1043, "rest_price": 88, "rest_type": "酸菜鱼/水煮鱼", "taste_score": 4.5, "environment_score": 4.5, "service_score": 4.5, "lng84": 104.18947127359542, "lat84": 30.826074793655195, "name": "新都区", "type_1": "水煮海鲜", "type_2": "水煮海鲜", "CLUSTER_ID": 185, "CLUSTER_SIZE": 1, "CLUSTER_ID_2": null, "CLUSTER_SIZE_2": null }, "geometry": { "type": "Point", "coordinates": [ 104.189471273595416, 30.826074793655195 ] } },
{ "type": "Feature", "properties": { "rest_name": "山界·创意川菜融合菜(汇锦城店)", "rest_star": 4.5, "rest_review": 958, "rest_price": 168, "rest_type": "川菜馆", "taste_score": 4.5, "environment_score": 4.8, "service_score": 4.8, "lng84": 104.02647036392582, "lat84": 30.474983623623697, "name": "武侯区", "type_1": "川渝", "type_2": "地域特色", "CLUSTER_ID": 221, "CLUSTER_SIZE": 31, "CLUSTER_ID_2": null, "CLUSTER_SIZE_2": null }, "geometry": { "type": "Point", "coordinates": [ 104.026470363925824, 30.474983623623697 ] } },
{ "type": "Feature", "properties": { "rest_name": "珍夕礼·意境川菜(佩米店)", "rest_star": 5.0, "rest_review": 523, "rest_price": 390, "rest_type": "私房菜", "taste_score": 4.8, "environment_score": 4.7, "service_score": 4.8, "lng84": 104.02647036392582, "lat84": 30.474983623623697, "name": "武侯区", "type_1": "其他", "type_2": "其他", "CLUSTER_ID": 221, "CLUSTER_SIZE": 31, "CLUSTER_ID_2": null, "CLUSTER_SIZE_2": null }, "geometry": { "type": "Point", "coordinates": [ 104.026470363925824, 30.474983623623697 ] } },
{ "type": "Feature", "properties": { "rest_name": "味之绝热血美蛙鱼头(静安路店)", "rest_star": 4.0, "rest_review": 526, "rest_price": 88, "rest_type": "鱼火锅", "taste_score": 4.4, "environment_score": 4.4, "service_score": 4.3, "lng84": 104.21463519309468, "lat84": 30.814603611781973, "name": "新都区", "type_1": "火锅", "type_2": "火锅", "CLUSTER_ID": 175, "CLUSTER_SIZE": 17, "CLUSTER_ID_2": null, "CLUSTER_SIZE_2": null }, "geometry": { "type": "Point", "coordinates": [ 104.214635193094679, 30.814603611781973 ] } },
{ "type": "Feature", "properties": { "rest_name": "隐庐·古法川菜", "rest_star": 4.5, "rest_review": 788, "rest_price": 482, "rest_type": "川菜馆", "taste_score": 4.7, "environment_score": 4.8, "service_score": 4.8, "lng84": 104.01272207079228, "lat84": 30.484121726888649, "name": "武侯区", "type_1": "川渝", "type_2": "地域特色", "CLUSTER_ID": 221, "CLUSTER_SIZE": 31, "CLUSTER_ID_2": null, "CLUSTER_SIZE_2": null }, "geometry": { "type": "Point", "coordinates": [ 104.012722070792279, 30.484121726888649 ] } },
{ "type": "Feature", "properties": { "rest_name": "麻渣渣洪七公串串(新都九街店)", "rest_star": 4.0, "rest_review": 830, "rest_price": 82, "rest_type": "串串香", "taste_score": 4.0, "environment_score": 4.0, "service_score": 3.9, "lng84": 104.22285979932137, "lat84": 30.810613825263523, "name": "新都区", "type_1": "川渝", "type_2": "地域特色", "CLUSTER_ID": 175, "CLUSTER_SIZE": 17, "CLUSTER_ID_2": null, "CLUSTER_SIZE_2": null }, "geometry": { "type": "Point", "coordinates": [ 104.22285979932137, 30.810613825263523 ] } },
{ "type": "Feature", "properties": { "rest_name": "颜氏跷脚牛肉(新会展店)", "rest_star": 4.5, "rest_review": 1819, "rest_price": 66, "rest_type": "川菜馆", "taste_score": 4.7, "environment_score": 4.3, "service_score": 4.6, "lng84": 104.12062482059609, "lat84": 30.470470307570533, "name": "武侯区", "type_1": "川渝", "type_2": "地域特色", "CLUSTER_ID": 238, "CLUSTER_SIZE": 5, "CLUSTER_ID_2": null, "CLUSTER_SIZE_2": null }, "geometry": { "type": "Point", "coordinates": [ 104.120624820596092, 30.470470307570533 ] } },
{ "type": "Feature", "properties": { "rest_name": "钢管厂五区小郡肝串串香(奥克斯店) 分店", "rest_star": 4.5, "rest_review": 1365, "rest_price": 70, "rest_type": "串串香", "taste_score": 4.6, "environment_score": 4.2, "service_score": 4.4, "lng84": 104.06348505513036, "lat84": 30.495375242482623, "name": "武侯区", "type_1": "川渝", "type_2": "地域特色", "CLUSTER_ID": 233, "CLUSTER_SIZE": 8, "CLUSTER_ID_2": null, "CLUSTER_SIZE_2": null }, "geometry": { "type": "Point", "coordinates": [ 104.063485055130357, 30.495375242482623 ] } },
{ "type": "Feature", "properties": { "rest_name": "煮织荟川菜馆(中海国际店)", "rest_star": 4.5, "rest_review": 534, "rest_price": 110, "rest_type": "川菜馆", "taste_score": 4.6, "environment_score": 4.4, "service_score": 4.7, "lng84": 104.02155187561924, "lat84": 30.50283524073533, "name": "武侯区", "type_1": "川渝", "type_2": "地域特色", "CLUSTER_ID": 237, "CLUSTER_SIZE": 19, "CLUSTER_ID_2": null, "CLUSTER_SIZE_2": null }, "geometry": { "type": "Point", "coordinates": [ 104.021551875619238, 30.50283524073533 ] } },
{ "type": "Feature", "properties": { "rest_name": "这里有意式料理(悠方店)", "rest_star": 4.5, "rest_review": 934, "rest_price": 84, "rest_type": "西餐", "taste_score": 4.4, "environment_score": 4.3, "service_score": 4.5, "lng84": 104.03288416172549, "lat84": 30.506478067656062, "name": "武侯区", "type_1": "西餐", "type_2": "西餐", "CLUSTER_ID": 237, "CLUSTER_SIZE": 19, "CLUSTER_ID_2": null, "CLUSTER_SIZE_2": null }, "geometry": { "type": "Point", "coordinates": [ 104.032884161725491, 30.506478067656062 ] } },
{ "type": "Feature", "properties": { "rest_name": "拾光三味·川派小吃集(环球中心乐天店)", "rest_star": 4.0, "rest_review": 740, "rest_price": 14, "rest_type": "小吃快餐", "taste_score": 4.3, "environment_score": 4.1, "service_score": 4.3, "lng84": 104.07533480591307, "lat84": 30.488115634907029, "name": "武侯区", "type_1": "其他", "type_2": "其他", "CLUSTER_ID": 253, "CLUSTER_SIZE": 16, "CLUSTER_ID_2": null, "CLUSTER_SIZE_2": null }, "geometry": { "type": "Point", "coordinates": [ 104.075334805913073, 30.488115634907029 ] } },
{ "type": "Feature", "properties": { "rest_name": "薛涛·中餐茶艺(九眼桥店)", "rest_star": 4.5, "rest_review": 586, "rest_price": 203, "rest_type": "川菜馆", "taste_score": 4.6, "environment_score": 4.8, "service_score": 4.5, "lng84": 104.14286404864093, "lat84": 30.568403004507296, "name": "武侯区", "type_1": "川渝", "type_2": "地域特色", "CLUSTER_ID": 254, "CLUSTER_SIZE": 5, "CLUSTER_ID_2": null, "CLUSTER_SIZE_2": null }, "geometry": { "type": "Point", "coordinates": [ 104.142864048640931, 30.568403004507296 ] } },
{ "type": "Feature", "properties": { "rest_name": "兔公馆酱烧兔火锅(金马店)", "rest_star": 4.5, "rest_review": 974, "rest_price": 71, "rest_type": "火锅", "taste_score": 4.5, "environment_score": 4.6, "service_score": 4.3, "lng84": 103.83996071522994, "lat84": 30.633866819588366, "name": "温江区", "type_1": "火锅", "type_2": "火锅", "CLUSTER_ID": 314, "CLUSTER_SIZE": 1, "CLUSTER_ID_2": null, "CLUSTER_SIZE_2": null }, "geometry": { "type": "Point", "coordinates": [ 103.839960715229935, 30.633866819588366 ] } },
{ "type": "Feature", "properties": { "rest_name": "陶园生态庭院火锅", "rest_star": 4.0, "rest_review": 537, "rest_price": 97, "rest_type": "四川火锅", "taste_score": 4.1, "environment_score": 4.2, "service_score": 4.1, "lng84": 103.88013705332919, "lat84": 30.709458474540241, "name": "温江区", "type_1": "川渝", "type_2": "地域特色", "CLUSTER_ID": 324, "CLUSTER_SIZE": 1, "CLUSTER_ID_2": null, "CLUSTER_SIZE_2": null }, "geometry": { "type": "Point", "coordinates": [ 103.880137053329193, 30.709458474540241 ] } },
{ "type": "Feature", "properties": { "rest_name": "寿安来凤鱼(汪电路店)", "rest_star": 4.5, "rest_review": 761, "rest_price": 72, "rest_type": "鱼火锅", "taste_score": 4.5, "environment_score": 4.3, "service_score": 4.3, "lng84": 103.78621147245266, "lat84": 30.810323300735366, "name": "温江区", "type_1": "火锅", "type_2": "火锅", "CLUSTER_ID": 317, "CLUSTER_SIZE": 1, "CLUSTER_ID_2": null, "CLUSTER_SIZE_2": null }, "geometry": { "type": "Point", "coordinates": [ 103.786211472452663, 30.810323300735366 ] } },
{ "type": "Feature", "properties": { "rest_name": "长寿老妈砂锅串串", "rest_star": 4.0, "rest_review": 942, "rest_price": 67, "rest_type": "串串香", "taste_score": 4.2, "environment_score": 4.2, "service_score": 4.2, "lng84": 103.86137586972859, "lat84": 30.708632619906812, "name": "温江区", "type_1": "川渝", "type_2": "地域特色", "CLUSTER_ID": 313, "CLUSTER_SIZE": 5, "CLUSTER_ID_2": null, "CLUSTER_SIZE_2": null }, "geometry": { "type": "Point", "coordinates": [ 103.86137586972859, 30.708632619906812 ] } },
{ "type": "Feature", "properties": { "rest_name": "鱼桥巷·美学川菜", "rest_star": 4.5, "rest_review": 756, "rest_price": 452, "rest_type": "川菜馆", "taste_score": 4.4, "environment_score": 4.9, "service_score": 4.6, "lng84": 103.95550577077177, "lat84": 30.69094281309393, "name": "青羊区", "type_1": "川渝", "type_2": "地域特色", "CLUSTER_ID": 21, "CLUSTER_SIZE": 13, "CLUSTER_ID_2": null, "CLUSTER_SIZE_2": null }, "geometry": { "type": "Point", "coordinates": [ 103.955505770771765, 30.69094281309393 ] } },
{ "type": "Feature", "properties": { "rest_name": "筷子派对鲜鱼馆(三友路店)", "rest_star": 4.0, "rest_review": 514, "rest_price": 90, "rest_type": "鱼火锅", "taste_score": 4.6, "environment_score": 4.6, "service_score": 4.4, "lng84": 104.14104511522495, "lat84": 30.76378939819223, "name": "金牛区", "type_1": "火锅", "type_2": "火锅", "CLUSTER_ID": 8, "CLUSTER_SIZE": 26, "CLUSTER_ID_2": null, "CLUSTER_SIZE_2": null }, "geometry": { "type": "Point", "coordinates": [ 104.141045115224955, 30.76378939819223 ] } },
{ "type": "Feature", "properties": { "rest_name": "阿斯牛牛·川菜系·凉山菜(新会展店)", "rest_star": 4.0, "rest_review": 1512, "rest_price": 117, "rest_type": "川菜馆", "taste_score": 4.3, "environment_score": 4.6, "service_score": 4.3, "lng84": 104.12112706039576, "lat84": 30.479688361810101, "name": "武侯区", "type_1": "川渝", "type_2": "地域特色", "CLUSTER_ID": 232, "CLUSTER_SIZE": 5, "CLUSTER_ID_2": null, "CLUSTER_SIZE_2": null }, "geometry": { "type": "Point", "coordinates": [ 104.121127060395764, 30.479688361810101 ] } },
{ "type": "Feature", "properties": { "rest_name": "he's何师烧烤(财富又一城暖阳店) 分店", "rest_star": 4.0, "rest_review": 1377, "rest_price": 89, "rest_type": "烤串", "taste_score": 4.2, "environment_score": 4.5, "service_score": 4.5, "lng84": 104.15773851422234, "lat84": 30.75427250638732, "name": "成华区", "type_1": "烧烤", "type_2": "烧烤", "CLUSTER_ID": 8, "CLUSTER_SIZE": 26, "CLUSTER_ID_2": null, "CLUSTER_SIZE_2": null }, "geometry": { "type": "Point", "coordinates": [ 104.157738514222345, 30.75427250638732 ] } },
{ "type": "Feature", "properties": { "rest_name": "川太子卤味老火锅(高新店)", "rest_star": 4.0, "rest_review": 833, "rest_price": 88, "rest_type": "重庆火锅", "taste_score": 4.6, "environment_score": 4.3, "service_score": 4.4, "lng84": 104.12595579684533, "lat84": 30.512075038595992, "name": "武侯区", "type_1": "川渝", "type_2": "地域特色", "CLUSTER_ID": 242, "CLUSTER_SIZE": 13, "CLUSTER_ID_2": null, "CLUSTER_SIZE_2": null }, "geometry": { "type": "Point", "coordinates": [ 104.125955796845332, 30.512075038595992 ] } },
{ "type": "Feature", "properties": { "rest_name": "喳哇小串", "rest_star": 4.0, "rest_review": 744, "rest_price": 79, "rest_type": "串串香", "taste_score": 4.4, "environment_score": 4.2, "service_score": 4.5, "lng84": 104.14161949501111, "lat84": 30.76714138471883, "name": "金牛区", "type_1": "川渝", "type_2": "地域特色", "CLUSTER_ID": 8, "CLUSTER_SIZE": 26, "CLUSTER_ID_2": null, "CLUSTER_SIZE_2": null }, "geometry": { "type": "Point", "coordinates": [ 104.141619495011113, 30.76714138471883 ] } },
{ "type": "Feature", "properties": { "rest_name": "MIKU觅餐厅(成都棕榈泉费尔蒙酒店)", "rest_star": 5.0, "rest_review": 722, "rest_price": 500, "rest_type": "日本料理", "taste_score": 4.8, "environment_score": 4.9, "service_score": 4.9, "lng84": 104.10195265329496, "lat84": 30.474703558291246, "name": "武侯区", "type_1": "日本菜", "type_2": "日本菜", "CLUSTER_ID": 225, "CLUSTER_SIZE": 27, "CLUSTER_ID_2": null, "CLUSTER_SIZE_2": null }, "geometry": { "type": "Point", "coordinates": [ 104.101952653294958, 30.474703558291246 ] } },
{ "type": "Feature", "properties": { "rest_name": "8号厚厨(李家沱店) 分店", "rest_star": 4.5, "rest_review": 899, "rest_price": 66, "rest_type": "川菜馆", "taste_score": 4.5, "environment_score": 4.6, "service_score": 4.3, "lng84": 104.1552945333577, "lat84": 30.774164465217609, "name": "金牛区", "type_1": "川渝", "type_2": "地域特色", "CLUSTER_ID": 8, "CLUSTER_SIZE": 26, "CLUSTER_ID_2": null, "CLUSTER_SIZE_2": null }, "geometry": { "type": "Point", "coordinates": [ 104.155294533357704, 30.774164465217609 ] } },
{ "type": "Feature", "properties": { "rest_name": "赤九天火锅(驷马桥店)", "rest_star": 4.0, "rest_review": 511, "rest_price": 14, "rest_type": "四川火锅", "taste_score": 4.5, "environment_score": 4.4, "service_score": 4.5, "lng84": 104.13429002442827, "lat84": 30.79392500673794, "name": "金牛区", "type_1": "川渝", "type_2": "地域特色", "CLUSTER_ID": 10, "CLUSTER_SIZE": 15, "CLUSTER_ID_2": null, "CLUSTER_SIZE_2": null }, "geometry": { "type": "Point", "coordinates": [ 104.134290024428267, 30.79392500673794 ] } },
{ "type": "Feature", "properties": { "rest_name": "拔萃(领地店) 分店", "rest_star": 4.0, "rest_review": 512, "rest_price": 156, "rest_type": "川菜馆", "taste_score": 4.1, "environment_score": 4.4, "service_score": 3.9, "lng84": 104.07633586135579, "lat84": 30.468805678562692, "name": "武侯区", "type_1": "川渝", "type_2": "地域特色", "CLUSTER_ID": 225, "CLUSTER_SIZE": 27, "CLUSTER_ID_2": null, "CLUSTER_SIZE_2": null }, "geometry": { "type": "Point", "coordinates": [ 104.076335861355787, 30.468805678562692 ] } },
{ "type": "Feature", "properties": { "rest_name": "温州一家人海鲜酒楼(红花北路店)", "rest_star": 4.0, "rest_review": 567, "rest_price": 29, "rest_type": "海鲜", "taste_score": 4.4, "environment_score": 4.1, "service_score": 4.0, "lng84": 104.12294722003203, "lat84": 30.789879906938022, "name": "金牛区", "type_1": "水煮海鲜", "type_2": "水煮海鲜", "CLUSTER_ID": 10, "CLUSTER_SIZE": 15, "CLUSTER_ID_2": null, "CLUSTER_SIZE_2": null }, "geometry": { "type": "Point", "coordinates": [ 104.122947220032032, 30.789879906938022 ] } },
{ "type": "Feature", "properties": { "rest_name": "坐井·百年江湖(大源国际店)", "rest_star": 4.0, "rest_review": 1147, "rest_price": 80, "rest_type": "川菜馆", "taste_score": 4.2, "environment_score": 4.5, "service_score": 4.3, "lng84": 104.08524587482334, "lat84": 30.465902350928175, "name": "武侯区", "type_1": "川渝", "type_2": "地域特色", "CLUSTER_ID": 225, "CLUSTER_SIZE": 27, "CLUSTER_ID_2": null, "CLUSTER_SIZE_2": null }, "geometry": { "type": "Point", "coordinates": [ 104.085245874823343, 30.465902350928175 ] } },
{ "type": "Feature", "properties": { "rest_name": "几铲铲江湖菜(花牌坊店)", "rest_star": 4.5, "rest_review": 629, "rest_price": 78, "rest_type": "川菜馆", "taste_score": 4.6, "environment_score": 4.2, "service_score": 4.5, "lng84": 104.01307547390286, "lat84": 30.743279804953723, "name": "金牛区", "type_1": "川渝", "type_2": "地域特色", "CLUSTER_ID": 13, "CLUSTER_SIZE": 168, "CLUSTER_ID_2": null, "CLUSTER_SIZE_2": null }, "geometry": { "type": "Point", "coordinates": [ 104.013075473902859, 30.743279804953723 ] } },
{ "type": "Feature", "properties": { "rest_name": "院8里·老川菜小酒场(鹭洲里店) 分店", "rest_star": 4.0, "rest_review": 1433, "rest_price": 110, "rest_type": "川菜馆", "taste_score": 4.3, "environment_score": 4.6, "service_score": 4.3, "lng84": 103.99340084970939, "lat84": 30.474932024902969, "name": "武侯区", "type_1": "川渝", "type_2": "地域特色", "CLUSTER_ID": 227, "CLUSTER_SIZE": 24, "CLUSTER_ID_2": null, "CLUSTER_SIZE_2": null }, "geometry": { "type": "Point", "coordinates": [ 103.993400849709388, 30.474932024902969 ] } },
{ "type": "Feature", "properties": { "rest_name": "藏炭烧肉屋(鹭洲里店) 分店", "rest_star": 4.0, "rest_review": 1769, "rest_price": 105, "rest_type": "日式烧烤/烤肉", "taste_score": 4.1, "environment_score": 4.2, "service_score": 4.0, "lng84": 103.99311198611494, "lat84": 30.475886727201289, "name": "武侯区", "type_1": "日本菜", "type_2": "日本菜", "CLUSTER_ID": 227, "CLUSTER_SIZE": 24, "CLUSTER_ID_2": null, "CLUSTER_SIZE_2": null }, "geometry": { "type": "Point", "coordinates": [ 103.99311198611494, 30.475886727201289 ] } },
{ "type": "Feature", "properties": { "rest_name": "钢管厂五区小郡肝串串香(黄金东一路店) 分店", "rest_star": 4.0, "rest_review": 1003, "rest_price": 106, "rest_type": "串串香", "taste_score": 4.5, "environment_score": 4.3, "service_score": 4.3, "lng84": 103.93632729830071, "lat84": 30.762130174490714, "name": "金牛区", "type_1": "川渝", "type_2": "地域特色", "CLUSTER_ID": 31, "CLUSTER_SIZE": 3, "CLUSTER_ID_2": null, "CLUSTER_SIZE_2": null }, "geometry": { "type": "Point", "coordinates": [ 103.936327298300711, 30.762130174490714 ] } },
{ "type": "Feature", "properties": { "rest_name": "川江滋香特色火锅(星科店) 分店", "rest_star": 4.0, "rest_review": 526, "rest_price": 26, "rest_type": "四川火锅", "taste_score": 4.5, "environment_score": 4.4, "service_score": 3.9, "lng84": 104.04895240450622, "lat84": 30.809710307655415, "name": "金牛区", "type_1": "川渝", "type_2": "地域特色", "CLUSTER_ID": 32, "CLUSTER_SIZE": 3, "CLUSTER_ID_2": null, "CLUSTER_SIZE_2": null }, "geometry": { "type": "Point", "coordinates": [ 104.048952404506224, 30.809710307655415 ] } },
{ "type": "Feature", "properties": { "rest_name": "楼上楼家宴馆川粤菜 鱼火锅", "rest_star": 4.0, "rest_review": 1080, "rest_price": 30, "rest_type": "川菜馆", "taste_score": 4.0, "environment_score": 4.1, "service_score": 3.9, "lng84": 104.02181720339483, "lat84": 30.620370964662097, "name": "青羊区", "type_1": "川渝", "type_2": "地域特色", "CLUSTER_ID": 218, "CLUSTER_SIZE": 13, "CLUSTER_ID_2": null, "CLUSTER_SIZE_2": null }, "geometry": { "type": "Point", "coordinates": [ 104.021817203394832, 30.620370964662097 ] } },
{ "type": "Feature", "properties": { "rest_name": "大厨小味(友谊路店) 分店", "rest_star": 4.0, "rest_review": 506, "rest_price": 63, "rest_type": "川菜馆", "taste_score": 4.3, "environment_score": 4.3, "service_score": 4.2, "lng84": 104.28341527904547, "lat84": 30.672964943017607, "name": "龙泉驿区", "type_1": "川渝", "type_2": "地域特色", "CLUSTER_ID": 490, "CLUSTER_SIZE": 1, "CLUSTER_ID_2": null, "CLUSTER_SIZE_2": null }, "geometry": { "type": "Point", "coordinates": [ 104.283415279045471, 30.672964943017607 ] } }
]
}
